{"error_count": 117, "missing_zipcodes": [{"country_code": "DE", "zipcode": "03139", "place": "Terpe", "state": "Brandenburg", "state_code": "BB", "province": "", "province_code": "00", "community": "Landkreis Spree-Nei\u00dfe", "community_code": "12071", "latitude": "51.5667", "longitude": "14.3667"}, {"country_code": "DE", "zipcode": "03202", "place": "Luckow-Petershagen", "state": "Brandenburg", "state_code": "BB", "province": "", "province_code": "00", "community": "Landkreis Uckermark", "community_code": "12073", "latitude": "53.2435", "longitude": "14.2573"}, {"country_code": "DE", "zipcode": "14461", "place": "Potsdam", "state": "Brandenburg", "state_code": "BB", "province": "", "province_code": "00", "community": "Kreisfreie Stadt Potsdam", "community_code": "12054", "latitude": "52.4", "longitude": "13.0667"}, {"country_code": "DE", "zipcode": "14557", "place": "Wilhelmshorst", "state": "Brandenburg", "state_code": "BB", "province": "", "province_code": "00", "community": "Landkreis Potsdam-Mittelmark", "community_code": "12069", "latitude": "52.3318", "longitude": "13.0622"}, {"country_code": "DE", "zipcode": "14557", "place": "Langerwisch", "state": "Brandenburg", "state_code": "BB", "province": "", "province_code": "00", "community": "Landkreis Potsdam-Mittelmark", "community_code": "12069", "latitude": "52.3167", "longitude": "13.0667"}, {"country_code": "DE", "zipcode": "14627", "place": "Elstal", "state": "Brandenburg", "state_code": "BB", "province": "", "province_code": "00", "community": "Landkreis Havelland", "community_code": "12063", "latitude": "52.5425", "longitude": "12.9879"}, {"country_code": "DE", "zipcode": "15372", "place": "M\u00fcncheberg", "state": "Brandenburg", "state_code": "BB", "province": "", "province_code": "00", "community": "Landkreis M\u00e4rkisch-Oderland", "community_code": "12064", "latitude": "52.5", "longitude": "14.1333"}, {"country_code": "DE", "zipcode": "15752", "place": "Kolberg", "state": "Brandenburg", "state_code": "BB", "province": "", "province_code": "00", "community": "Landkreis Dahme-Spreewald", "community_code": "12061", "latitude": "52.2439", "longitude": "13.8052"}, {"country_code": "DE", "zipcode": "15752", "place": "Streganz", "state": "Brandenburg", "state_code": "BB", "province": "", "province_code": "00", "community": "Landkreis Dahme-Spreewald", "community_code": "12061", "latitude": "52.2022", "longitude": "13.8371"}, {"country_code": "DE", "zipcode": "15752", "place": "Prieros", "state": "Brandenburg", "state_code": "BB", "province": "", "province_code": "00", "community": "Landkreis Dahme-Spreewald", "community_code": "12061", "latitude": "52.224", "longitude": "13.7708"}, {"country_code": "DE", "zipcode": "15758", "place": "Zernsdorf", "state": "Brandenburg", "state_code": "BB", "province": "", "province_code": "00", "community": "Landkreis Dahme-Spreewald", "community_code": "12061", "latitude": "52.3036", "longitude": "13.6969"}, {"country_code": "DE", "zipcode": "15758", "place": "Kablow", "state": "Brandenburg", "state_code": "BB", "province": "", "province_code": "00", "community": "Landkreis Dahme-Spreewald", "community_code": "12061", "latitude": "52.2973", "longitude": "13.7179"}, {"country_code": "DE", "zipcode": "16352", "place": "Sch\u00f6nerlinde", "state": "Brandenburg", "state_code": "BB", "province": "", "province_code": "00", "community": "Landkreis Barnim", "community_code": "12060", "latitude": "52.6539", "longitude": "13.445"}, {"country_code": "DE", "zipcode": "16352", "place": "Basdorf", "state": "Brandenburg", "state_code": "BB", "province": "", "province_code": "00", "community": "Landkreis Barnim", "community_code": "12060", "latitude": "52.7126", "longitude": "13.4387"}, {"country_code": "DE", "zipcode": "16352", "place": "Sch\u00f6nwalde", "state": "Brandenburg", "state_code": "BB", "province": "", "province_code": "00", "community": "Landkreis Barnim", "community_code": "12060", "latitude": "52.6779", "longitude": "13.44"}, {"country_code": "DE", "zipcode": "16565", "place": "Lehnitz", "state": "Brandenburg", "state_code": "BB", "province": "", "province_code": "00", "community": "Landkreis Oberhavel", "community_code": "12065", "latitude": "52.7405", "longitude": "13.2627"}, {"country_code": "DE", "zipcode": "16921", "place": "Alt Kr\u00fcssow", "state": "Brandenburg", "state_code": "BB", "province": "", "province_code": "00", "community": "Landkreis Prignitz", "community_code": "12070", "latitude": "53.15", "longitude": "12.2667"}, {"country_code": "DE", "zipcode": "11011", "place": "Berlin", "state": "Berlin", "state_code": "BE", "province": "", "province_code": "00", "community": "Berlin, Stadt", "community_code": "11000", "latitude": "52.5179", "longitude": "13.3759"}, {"country_code": "DE", "zipcode": "13047", "place": "Reinickendorf", "state": "Berlin", "state_code": "BE", "province": "", "province_code": "00", "community": "Berlin, Stadt", "community_code": "11000", "latitude": "52.5667", "longitude": "13.3333"}, {"country_code": "DE", "zipcode": "14131", "place": "Berlin", "state": "Berlin", "state_code": "BE", "province": "", "province_code": "00", "community": "Berlin, Stadt", "community_code": "11000", "latitude": "52.517", "longitude": "13.4"}, {"country_code": "DE", "zipcode": "71718", "place": "Billensbach", "state": "Baden-W\u00fcrttemberg", "state_code": "BW", "province": "Regierungsbezirk Stuttgart", "province_code": "081", "community": "Landkreis Heilbronn", "community_code": "08125", "latitude": "49.0621", "longitude": "9.367"}, {"country_code": "DE", "zipcode": "74337", "place": "Botenheim", "state": "Baden-W\u00fcrttemberg", "state_code": "BW", "province": "Regierungsbezirk Stuttgart", "province_code": "081", "community": "Landkreis Heilbronn", "community_code": "08125", "latitude": "49.0651", "longitude": "9.064"}, {"country_code": "DE", "zipcode": "74832", "place": "Bachenau", "state": "Baden-W\u00fcrttemberg", "state_code": "BW", "province": "Regierungsbezirk Stuttgart", "province_code": "081", "community": "Landkreis Heilbronn", "community_code": "08125", "latitude": "49.2784", "longitude": "9.1944"}, {"country_code": "DE", "zipcode": "72291", "place": "Betzweiler-W\u00e4lde", "state": "Baden-W\u00fcrttemberg", "state_code": "BW", "province": "Karlsruhe Region", "province_code": "082", "community": "Freudenstadt", "community_code": "08237", "latitude": "48.3667", "longitude": "8.4833"}, {"country_code": "DE", "zipcode": "76006", "place": "Karlsruhe", "state": "Baden-W\u00fcrttemberg", "state_code": "BW", "province": "Karlsruhe Region", "province_code": "082", "community": "Karlsruhe", "community_code": "08212", "latitude": "49.008", "longitude": "8.42"}, {"country_code": "DE", "zipcode": "77944", "place": "Friesenheim", "state": "Baden-W\u00fcrttemberg", "state_code": "BW", "province": "Freiburg Region", "province_code": "083", "community": "Ortenaukreis", "community_code": "08317", "latitude": "48.367", "longitude": "7.883"}, {"country_code": "DE", "zipcode": "79513", "place": "R\u00f6ttlerweiler", "state": "Baden-W\u00fcrttemberg", "state_code": "BW", "province": "Freiburg Region", "province_code": "083", "community": "Landkreis L\u00f6rrach", "community_code": "08336", "latitude": "47.6324", "longitude": "7.6594"}, {"country_code": "DE", "zipcode": "79578", "place": "Steinen", "state": "Baden-W\u00fcrttemberg", "state_code": "BW", "province": "Freiburg Region", "province_code": "083", "community": "Landkreis L\u00f6rrach", "community_code": "08336", "latitude": "47.65", "longitude": "7.733"}, {"country_code": "DE", "zipcode": "88086", "place": "Immenstaad am Bodensee", "state": "Baden-W\u00fcrttemberg", "state_code": "BW", "province": "T\u00fcbingen Region", "province_code": "084", "community": "Bodenseekreis", "community_code": "08435", "latitude": "47.665", "longitude": "9.359"}, {"country_code": "DE", "zipcode": "89040", "place": "Ulm", "state": "Baden-W\u00fcrttemberg", "state_code": "BW", "province": "T\u00fcbingen Region", "province_code": "084", "community": "Ulm", "community_code": "08421", "latitude": "48.417", "longitude": "9.964"}, {"country_code": "DE", "zipcode": "82032", "place": "Deisenhofen bei M\u00fcnchen", "state": "Bayern", "state_code": "BY", "province": "Upper Bavaria", "province_code": "091", "community": "Landkreis M\u00fcnchen", "community_code": "09184", "latitude": "48.0182", "longitude": "11.5888"}, {"country_code": "DE", "zipcode": "82282", "place": "Pischertshofen", "state": "Bayern", "state_code": "BY", "province": "Upper Bavaria", "province_code": "091", "community": "F\u00fcrstenfeldbruck", "community_code": "09179", "latitude": "48.2833", "longitude": "11.1667"}, {"country_code": "DE", "zipcode": "82432", "place": "Urfeld, Oberbayern", "state": "Bayern", "state_code": "BY", "province": "Upper Bavaria", "province_code": "091", "community": "Landkreis Bad T\u00f6lz-Wolfratshausen", "community_code": "09173", "latitude": "47.6167", "longitude": "11.35"}, {"country_code": "DE", "zipcode": "83344", "place": "Bergen", "state": "Bayern", "state_code": "BY", "province": "Upper Bavaria", "province_code": "091", "community": "Landkreis Traunstein", "community_code": "09189", "latitude": "47.804", "longitude": "12.583"}, {"country_code": "DE", "zipcode": "83359", "place": "Hallabruck", "state": "Bayern", "state_code": "BY", "province": "Upper Bavaria", "province_code": "091", "community": "Landkreis Traunstein", "community_code": "09189", "latitude": "47.8667", "longitude": "12.7"}, {"country_code": "DE", "zipcode": "83489", "place": "Strub", "state": "Bayern", "state_code": "BY", "province": "Upper Bavaria", "province_code": "091", "community": "Berchtesgadener Land", "community_code": "09172", "latitude": "47.6254", "longitude": "12.9741"}, {"country_code": "DE", "zipcode": "83739", "place": "Hofreuth bei W\u00f6rnsm\u00fchl", "state": "Bayern", "state_code": "BY", "province": "Upper Bavaria", "province_code": "091", "community": "Miesbach", "community_code": "09182", "latitude": "47.8333", "longitude": "11.9167"}, {"country_code": "DE", "zipcode": "85655", "place": "Loibersdorf bei Gro\u00dfhelfendorf", "state": "Bayern", "state_code": "BY", "province": "Upper Bavaria", "province_code": "091", "community": "Landkreis M\u00fcnchen", "community_code": "09184", "latitude": "47.9602", "longitude": "11.8366"}, {"country_code": "DE", "zipcode": "94155", "place": "Otterskirchen", "state": "Bayern", "state_code": "BY", "province": "Lower Bavaria", "province_code": "092", "community": "Landkreis Passau", "community_code": "09275", "latitude": "48.6167", "longitude": "13.2167"}, {"country_code": "DE", "zipcode": "94565", "place": "Erlhof bei Rathsmannsdorf", "state": "Bayern", "state_code": "BY", "province": "Lower Bavaria", "province_code": "092", "community": "Landkreis Passau", "community_code": "09275", "latitude": "48.6771", "longitude": "13.2258"}, {"country_code": "DE", "zipcode": "90457", "place": "Moorenbrunn", "state": "Bayern", "state_code": "BY", "province": "Regierungsbezirk Mittelfranken", "province_code": "095", "community": "N\u00fcrnberg", "community_code": "09564", "latitude": "49.3984", "longitude": "11.174"}, {"country_code": "DE", "zipcode": "97412", "place": "Schweinfurt", "state": "Bayern", "state_code": "BY", "province": "Regierungsbezirk Unterfranken", "province_code": "096", "community": "Schweinfurt", "community_code": "09662", "latitude": "50.05", "longitude": "10.2333"}, {"country_code": "DE", "zipcode": "89432", "place": "Binswangen", "state": "Bayern", "state_code": "BY", "province": "Swabia", "province_code": "097", "community": "Landkreis Dillingen an der Donau", "community_code": "09773", "latitude": "48.558", "longitude": "10.6425"}, {"country_code": "DE", "zipcode": "89444", "place": "Villenbach", "state": "Bayern", "state_code": "BY", "province": "Swabia", "province_code": "097", "community": "Landkreis Dillingen an der Donau", "community_code": "09773", "latitude": "48.5089", "longitude": "10.6147"}, {"country_code": "DE", "zipcode": "89449", "place": "Zusamaltheim", "state": "Bayern", "state_code": "BY", "province": "Swabia", "province_code": "097", "community": "Landkreis Dillingen an der Donau", "community_code": "09773", "latitude": "48.531", "longitude": "10.6356"}, {"country_code": "DE", "zipcode": "28335", "place": "Bremen", "state": "Bremen", "state_code": "HB", "province": "", "province_code": "00", "community": "Kreisfreie Stadt Bremen", "community_code": "04011", "latitude": "53.054", "longitude": "8.746"}, {"country_code": "DE", "zipcode": "60306", "place": "Frankfurt am Main", "state": "Hessen", "state_code": "HE", "province": "Regierungsbezirk Darmstadt", "province_code": "064", "community": "Frankfurt am Main, Stadt", "community_code": "06412", "latitude": "50.1159", "longitude": "8.6702"}, {"country_code": "DE", "zipcode": "60310", "place": "Frankfurt am Main", "state": "Hessen", "state_code": "HE", "province": "Regierungsbezirk Darmstadt", "province_code": "064", "community": "Frankfurt am Main, Stadt", "community_code": "06412", "latitude": "50.1107", "longitude": "8.673"}, {"country_code": "DE", "zipcode": "63405", "place": "Hanau", "state": "Hessen", "state_code": "HE", "province": "Regierungsbezirk Darmstadt", "province_code": "064", "community": "Main-Kinzig-Kreis", "community_code": "06435", "latitude": "50.1333", "longitude": "8.9167"}, {"country_code": "DE", "zipcode": "65219", "place": "Taunusstein", "state": "Hessen", "state_code": "HE", "province": "Regierungsbezirk Darmstadt", "province_code": "064", "community": "Rheingau-Taunus-Kreis", "community_code": "06439", "latitude": "50.15", "longitude": "8.15"}, {"country_code": "DE", "zipcode": "65220", "place": "Taunusstein", "state": "Hessen", "state_code": "HE", "province": "Regierungsbezirk Darmstadt", "province_code": "064", "community": "Rheingau-Taunus-Kreis", "community_code": "06439", "latitude": "50.15", "longitude": "8.15"}, {"country_code": "DE", "zipcode": "65221", "place": "Taunusstein", "state": "Hessen", "state_code": "HE", "province": "Regierungsbezirk Darmstadt", "province_code": "064", "community": "Rheingau-Taunus-Kreis", "community_code": "06439", "latitude": "50.15", "longitude": "8.15"}, {"country_code": "DE", "zipcode": "65222", "place": "Taunusstein", "state": "Hessen", "state_code": "HE", "province": "Regierungsbezirk Darmstadt", "province_code": "064", "community": "Rheingau-Taunus-Kreis", "community_code": "06439", "latitude": "50.15", "longitude": "8.15"}, {"country_code": "DE", "zipcode": "65223", "place": "Taunusstein", "state": "Hessen", "state_code": "HE", "province": "Regierungsbezirk Darmstadt", "province_code": "064", "community": "Rheingau-Taunus-Kreis", "community_code": "06439", "latitude": "50.15", "longitude": "8.15"}, {"country_code": "DE", "zipcode": "65224", "place": "Taunusstein", "state": "Hessen", "state_code": "HE", "province": "Regierungsbezirk Darmstadt", "province_code": "064", "community": "Rheingau-Taunus-Kreis", "community_code": "06439", "latitude": "50.15", "longitude": "8.15"}, {"country_code": "DE", "zipcode": "20038", "place": "Hamburg", "state": "Hamburg", "state_code": "HH", "province": "", "province_code": "00", "community": "Hamburg, Freie und Hansestadt", "community_code": "02000", "latitude": "53.5544", "longitude": "9.9946"}, {"country_code": "DE", "zipcode": "17259", "place": "Feldberger Seenlandschaft", "state": "Mecklenburg-Vorpommern", "state_code": "MV", "province": "", "province_code": "00", "community": "Mecklenburgische Seenplatte", "community_code": "13071", "latitude": "53.3391", "longitude": "13.4188"}, {"country_code": "DE", "zipcode": "18231", "place": "Neubukow", "state": "Mecklenburg-Vorpommern", "state_code": "MV", "province": "", "province_code": "00", "community": "Landkreis Rostock", "community_code": "13072", "latitude": "54.0319", "longitude": "11.6725"}, {"country_code": "DE", "zipcode": "23944", "place": "Ostseebad Boltenhagen", "state": "Mecklenburg-Vorpommern", "state_code": "MV", "province": "", "province_code": "00", "community": "Nordwestmecklenburg", "community_code": "13074", "latitude": "53.9878", "longitude": "11.2019"}, {"country_code": "DE", "zipcode": "23952", "place": "Wismar, Mecklenburg", "state": "Mecklenburg-Vorpommern", "state_code": "MV", "province": "", "province_code": "00", "community": "Nordwestmecklenburg", "community_code": "13074", "latitude": "53.8884", "longitude": "11.4622"}, {"country_code": "DE", "zipcode": "27639", "place": "Midlum", "state": "Niedersachsen", "state_code": "NI", "province": "", "province_code": "00", "community": "Landkreis Cuxhaven", "community_code": "03352", "latitude": "53.7313", "longitude": "8.617"}, {"country_code": "DE", "zipcode": "27639", "place": "Mulsum", "state": "Niedersachsen", "state_code": "NI", "province": "", "province_code": "00", "community": "Landkreis Cuxhaven", "community_code": "03352", "latitude": "53.6667", "longitude": "8.55"}, {"country_code": "DE", "zipcode": "27639", "place": "Padingb\u00fcttel", "state": "Niedersachsen", "state_code": "NI", "province": "", "province_code": "00", "community": "Landkreis Cuxhaven", "community_code": "03352", "latitude": "53.7", "longitude": "8.5333"}, {"country_code": "DE", "zipcode": "27639", "place": "Misselwarden", "state": "Niedersachsen", "state_code": "NI", "province": "", "province_code": "00", "community": "Landkreis Cuxhaven", "community_code": "03352", "latitude": "53.6753", "longitude": "8.5165"}, {"country_code": "DE", "zipcode": "27639", "place": "Cappel", "state": "Niedersachsen", "state_code": "NI", "province": "", "province_code": "00", "community": "Landkreis Cuxhaven", "community_code": "03352", "latitude": "53.7265", "longitude": "8.5703"}, {"country_code": "DE", "zipcode": "27639", "place": "Dorum", "state": "Niedersachsen", "state_code": "NI", "province": "", "province_code": "00", "community": "Landkreis Cuxhaven", "community_code": "03352", "latitude": "53.6833", "longitude": "8.5667"}, {"country_code": "DE", "zipcode": "30669", "place": "Hannover", "state": "Niedersachsen", "state_code": "NI", "province": "", "province_code": "00", "community": "Region Hannover", "community_code": "03241", "latitude": "52.3667", "longitude": "9.7167"}, {"country_code": "DE", "zipcode": "38023", "place": "Braunschweig", "state": "Niedersachsen", "state_code": "NI", "province": "", "province_code": "00", "community": "Kreisfreie Stadt Braunschweig", "community_code": "03101", "latitude": "52.255", "longitude": "10.541"}, {"country_code": "DE", "zipcode": "38281", "place": "Wolfenb\u00fcttel", "state": "Niedersachsen", "state_code": "NI", "province": "", "province_code": "00", "community": "Landkreis Wolfenb\u00fcttel", "community_code": "03158", "latitude": "52.159", "longitude": "10.535"}, {"country_code": "DE", "zipcode": "40832", "place": "Ratingen", "state": "Nordrhein-Westfalen", "state_code": "NW", "province": "Reg.-Bez. D\u00fcsseldorf", "province_code": "051", "community": "Mettmann", "community_code": "05158", "latitude": "51.3", "longitude": "6.85"}, {"country_code": "DE", "zipcode": "45403", "place": "M\u00fclheim an der Ruhr", "state": "Nordrhein-Westfalen", "state_code": "NW", "province": "Reg.-Bez. D\u00fcsseldorf", "province_code": "051", "community": "M\u00fclheim an der Ruhr, Stadt", "community_code": "05117", "latitude": "51.4333", "longitude": "6.8833"}, {"country_code": "DE", "zipcode": "48079", "place": "M\u00fcnster", "state": "Nordrhein-Westfalen", "state_code": "NW", "province": "Reg.-Bez. M\u00fcnster", "province_code": "055", "community": "M\u00fcnster, Stadt", "community_code": "05515", "latitude": "51.96", "longitude": "7.631"}, {"country_code": "DE", "zipcode": "33311", "place": "G\u00fctersloh", "state": "Nordrhein-Westfalen", "state_code": "NW", "province": "Reg.-Bez. Detmold", "province_code": "057", "community": "G\u00fctersloh", "community_code": "05754", "latitude": "51.9", "longitude": "8.384"}, {"country_code": "DE", "zipcode": "33519", "place": "Bielefeld", "state": "Nordrhein-Westfalen", "state_code": "NW", "province": "Reg.-Bez. Detmold", "province_code": "057", "community": "Bielefeld, Stadt", "community_code": "05711", "latitude": "52.033", "longitude": "8.533"}, {"country_code": "DE", "zipcode": "67653", "place": "Kaiserslautern", "state": "Rheinland-Pfalz", "state_code": "RP", "province": "", "province_code": "00", "community": "Kaiserslautern, kreisfreie Stadt", "community_code": "07312", "latitude": "49.45", "longitude": "7.75"}, {"country_code": "DE", "zipcode": "67661", "place": "Kaiserslautern", "state": "Rheinland-Pfalz", "state_code": "RP", "province": "", "province_code": "00", "community": "Landkreis Kaiserslautern", "community_code": "07335", "latitude": "49.4126", "longitude": "7.7107"}, {"country_code": "DE", "zipcode": "23539", "place": "L\u00fcbeck", "state": "Schleswig-Holstein", "state_code": "SH", "province": "", "province_code": "00", "community": "L\u00fcbeck, Hansestadt", "community_code": "01003", "latitude": "53.8696", "longitude": "10.6871"}, {"country_code": "DE", "zipcode": "24976", "place": "Handewitt", "state": "Schleswig-Holstein", "state_code": "SH", "province": "", "province_code": "00", "community": "Kreis Schleswig-Flensburg", "community_code": "01059", "latitude": "54.7645", "longitude": "9.3153"}, {"country_code": "DE", "zipcode": "25404", "place": "Pinneberg", "state": "Schleswig-Holstein", "state_code": "SH", "province": "", "province_code": "00", "community": "Kreis Pinneberg", "community_code": "01056", "latitude": "53.659", "longitude": "9.801"}, {"country_code": "DE", "zipcode": "25429", "place": "Uetersen", "state": "Schleswig-Holstein", "state_code": "SH", "province": "", "province_code": "00", "community": "Kreis Pinneberg", "community_code": "01056", "latitude": "53.6934", "longitude": "9.6542"}, {"country_code": "DE", "zipcode": "25437", "place": "Tornesch", "state": "Schleswig-Holstein", "state_code": "SH", "province": "", "province_code": "00", "community": "Kreis Pinneberg", "community_code": "01056", "latitude": "53.7039", "longitude": "9.731"}, {"country_code": "DE", "zipcode": "25875", "place": "Schob\u00fcll", "state": "Schleswig-Holstein", "state_code": "SH", "province": "", "province_code": "00", "community": "Kreis Nordfriesland", "community_code": "01054", "latitude": "54.5092", "longitude": "9.0062"}, {"country_code": "DE", "zipcode": "66126", "place": "Saarbr\u00fccken", "state": "Saarland", "state_code": "SL", "province": "", "province_code": "00", "community": "Regionalverband Saarbr\u00fccken", "community_code": "10041", "latitude": "49.2333", "longitude": "7"}, {"country_code": "DE", "zipcode": "02827", "place": "G\u00f6rlitz", "state": "Sachsen", "state_code": "SN", "province": "", "province_code": "00", "community": "Landkreis G\u00f6rlitz", "community_code": "14626", "latitude": "51.149", "longitude": "14.9534"}, {"country_code": "DE", "zipcode": "08318", "place": "Hundsh\u00fcbel", "state": "Sachsen", "state_code": "SN", "province": "", "province_code": "00", "community": "Erzgebirgskreis", "community_code": "14521", "latitude": "50.5439", "longitude": "12.5711"}, {"country_code": "DE", "zipcode": "08325", "place": "Carlsfeld, Erzgebirge", "state": "Sachsen", "state_code": "SN", "province": "", "province_code": "00", "community": "Erzgebirgskreis", "community_code": "14521", "latitude": "50.5167", "longitude": "12.6"}, {"country_code": "DE", "zipcode": "08355", "place": "Rittersgr\u00fcn", "state": "Sachsen", "state_code": "SN", "province": "", "province_code": "00", "community": "Erzgebirgskreis", "community_code": "14521", "latitude": "50.4803", "longitude": "12.7934"}, {"country_code": "DE", "zipcode": "08432", "place": "Steinpleis", "state": "Sachsen", "state_code": "SN", "province": "", "province_code": "00", "community": "Zwickau", "community_code": "14524", "latitude": "50.7142", "longitude": "12.3999"}, {"country_code": "DE", "zipcode": "08439", "place": "Langenhessen", "state": "Sachsen", "state_code": "SN", "province": "", "province_code": "00", "community": "Zwickau", "community_code": "14524", "latitude": "50.7625", "longitude": "12.3714"}, {"country_code": "DE", "zipcode": "08529", "place": "Plauen", "state": "Sachsen", "state_code": "SN", "province": "", "province_code": "00", "community": "Vogtlandkreis", "community_code": "14523", "latitude": "50.4921", "longitude": "12.1775"}, {"country_code": "DE", "zipcode": "09028", "place": "Chemnitz, Sachsen", "state": "Sachsen", "state_code": "SN", "province": "", "province_code": "00", "community": "Chemnitz, Stadt", "community_code": "14511", "latitude": "50.8333", "longitude": "12.9167"}, {"country_code": "DE", "zipcode": "09030", "place": "Chemnitz, Sachsen", "state": "Sachsen", "state_code": "SN", "province": "", "province_code": "00", "community": "Chemnitz, Stadt", "community_code": "14511", "latitude": "50.8333", "longitude": "12.9167"}, {"country_code": "DE", "zipcode": "09227", "place": "Einsiedel bei Chemnitz", "state": "Sachsen", "state_code": "SN", "province": "", "province_code": "00", "community": "Chemnitz, Stadt", "community_code": "14511", "latitude": "50.7705", "longitude": "12.9745"}, {"country_code": "DE", "zipcode": "06348", "place": "Gro\u00df\u00f6rner", "state": "Sachsen-Anhalt", "state_code": "ST", "province": "", "province_code": "00", "community": "Mansfeld-S\u00fcdharz", "community_code": "15087", "latitude": "51.6153", "longitude": "11.4898"}, {"country_code": "DE", "zipcode": "06725", "place": "Profen", "state": "Sachsen-Anhalt", "state_code": "ST", "province": "", "province_code": "00", "community": "Burgenlandkreis", "community_code": "15084", "latitude": "51.1259", "longitude": "12.2166"}, {"country_code": "DE", "zipcode": "06725", "place": "Reuden", "state": "Sachsen-Anhalt", "state_code": "ST", "province": "", "province_code": "00", "community": "Burgenlandkreis", "community_code": "15084", "latitude": "51.1107", "longitude": "12.1948"}, {"country_code": "DE", "zipcode": "06731", "place": "Bitterfeld-Wolfen", "state": "Sachsen-Anhalt", "state_code": "ST", "province": "", "province_code": "00", "community": "Anhalt-Bitterfeld", "community_code": "15082", "latitude": "51.6229", "longitude": "12.2677"}, {"country_code": "DE", "zipcode": "06861", "place": "Dessau-Ro\u00dflau", "state": "Sachsen-Anhalt", "state_code": "ST", "province": "", "province_code": "00", "community": "Dessau-Ro\u00dflau", "community_code": "15001", "latitude": "51.8333", "longitude": "12.25"}, {"country_code": "DE", "zipcode": "06889", "place": "Lutherstadt Wittenberg", "state": "Sachsen-Anhalt", "state_code": "ST", "province": "", "province_code": "00", "community": "Landkreis Wittenberg", "community_code": "15091", "latitude": "51.8744", "longitude": "12.606"}, {"country_code": "DE", "zipcode": "39014", "place": "Magdeburg", "state": "Sachsen-Anhalt", "state_code": "ST", "province": "", "province_code": "00", "community": "Landeshauptstadt Magdeburg", "community_code": "15003", "latitude": "52.082", "longitude": "11.586"}, {"country_code": "DE", "zipcode": "39434", "place": "Hecklingen bei Sta\u00dffurt", "state": "Sachsen-Anhalt", "state_code": "ST", "province": "", "province_code": "00", "community": "Salzlandkreis", "community_code": "15089", "latitude": "51.85", "longitude": "11.5333"}, {"country_code": "DE", "zipcode": "07336", "place": "Birkigt", "state": "Th\u00fcringen", "state_code": "TH", "province": "", "province_code": "00", "community": "Saalfeld-Rudolstadt", "community_code": "16073", "latitude": "50.6694", "longitude": "11.4846"}, {"country_code": "DE", "zipcode": "07336", "place": "K\u00f6nitz", "state": "Th\u00fcringen", "state_code": "TH", "province": "", "province_code": "00", "community": "Saalfeld-Rudolstadt", "community_code": "16073", "latitude": "50.6498", "longitude": "11.4881"}, {"country_code": "DE", "zipcode": "98630", "place": "Westenfeld", "state": "Th\u00fcringen", "state_code": "TH", "province": "", "province_code": "00", "community": "Landkreis Hildburghausen", "community_code": "16069", "latitude": "50.4311", "longitude": "10.4963"}, {"country_code": "DE", "zipcode": "98630", "place": "Mendhausen", "state": "Th\u00fcringen", "state_code": "TH", "province": "", "province_code": "00", "community": "Landkreis Hildburghausen", "community_code": "16069", "latitude": "50.3822", "longitude": "10.4727"}, {"country_code": "DE", "zipcode": "98630", "place": "Milz", "state": "Th\u00fcringen", "state_code": "TH", "province": "", "province_code": "00", "community": "Landkreis Hildburghausen", "community_code": "16069", "latitude": "50.3776", "longitude": "10.5376"}, {"country_code": "DE", "zipcode": "98630", "place": "R\u00f6mhild", "state": "Th\u00fcringen", "state_code": "TH", "province": "", "province_code": "00", "community": "Landkreis Hildburghausen", "community_code": "16069", "latitude": "50.3964", "longitude": "10.5389"}, {"country_code": "DE", "zipcode": "99130", "place": "Marlishausen", "state": "Th\u00fcringen", "state_code": "TH", "province": "", "province_code": "00", "community": "Ilm-Kreis", "community_code": "16070", "latitude": "50.8222", "longitude": "11.0172"}, {"country_code": "DE", "zipcode": "99707", "place": "G\u00fcnserode", "state": "Th\u00fcringen", "state_code": "TH", "province": "", "province_code": "00", "community": "Kyffh\u00e4userkreis", "community_code": "16065", "latitude": "51.3081", "longitude": "11.0494"}, {"country_code": "DE", "zipcode": "99707", "place": "Steinthaleben", "state": "Th\u00fcringen", "state_code": "TH", "province": "", "province_code": "00", "community": "Kyffh\u00e4userkreis", "community_code": "16065", "latitude": "51.395", "longitude": "11.025"}, {"country_code": "DE", "zipcode": "99707", "place": "Seega", "state": "Th\u00fcringen", "state_code": "TH", "province": "", "province_code": "00", "community": "Kyffh\u00e4userkreis", "community_code": "16065", "latitude": "51.3252", "longitude": "11.0345"}, {"country_code": "DE", "zipcode": "99707", "place": "Bendeleben", "state": "Th\u00fcringen", "state_code": "TH", "province": "", "province_code": "00", "community": "Kyffh\u00e4userkreis", "community_code": "16065", "latitude": "51.3726", "longitude": "11.0068"}, {"country_code": "DE", "zipcode": "99707", "place": "Badra", "state": "Th\u00fcringen", "state_code": "TH", "province": "", "province_code": "00", "community": "Kyffh\u00e4userkreis", "community_code": "16065", "latitude": "51.4069", "longitude": "10.9743"}, {"country_code": "DE", "zipcode": "99707", "place": "Hachelbich", "state": "Th\u00fcringen", "state_code": "TH", "province": "", "province_code": "00", "community": "Kyffh\u00e4userkreis", "community_code": "16065", "latitude": "51.3438", "longitude": "10.9653"}, {"country_code": "DE", "zipcode": "99707", "place": "G\u00f6llingen", "state": "Th\u00fcringen", "state_code": "TH", "province": "", "province_code": "00", "community": "Kyffh\u00e4userkreis", "community_code": "16065", "latitude": "51.3436", "longitude": "11.0144"}, {"country_code": "DE", "zipcode": "99707", "place": "Rottleben", "state": "Th\u00fcringen", "state_code": "TH", "province": "", "province_code": "00", "community": "Kyffh\u00e4userkreis", "community_code": "16065", "latitude": "51.3621", "longitude": "11.0475"}, {"country_code": "DE", "zipcode": "99820", "place": "Behringen", "state": "Th\u00fcringen", "state_code": "TH", "province": "", "province_code": "00", "community": "Wartburgkreis", "community_code": "16063", "latitude": "51.0217", "longitude": "10.5101"}]}
